{"t_mono": 533704.732779193, "armed": null, "flight_mode": null, "lat_deg": null, "lon_deg": null, "alt_m": null, "rel_alt_m": null, "roll_deg": 0.06950103012650109, "pitch_deg": 0.05925862785753807, "yaw_deg": -4.902755463125227, "groundspeed_ms": null, "heading_deg": null, "battery_v": null, "battery_pct": null, "iso_time": "2026-07-10T23:41:17"}
{"t_mono": 533704.733284932, "armed": null, "flight_mode": null, "lat_deg": -35.363262, "lon_deg": 149.1652371, "alt_m": 584.09, "rel_alt_m": 0.003, "roll_deg": 0.06950103012650109, "pitch_deg": 0.05925862785753807, "yaw_deg": -4.902755463125227, "groundspeed_ms": null, "heading_deg": null, "battery_v": null, "battery_pct": null, "iso_time": "2026-07-10T23:41:17"}
{"t_mono": 533704.733655338, "armed": null, "flight_mode": null, "lat_deg": -35.363262, "lon_deg": 149.1652371, "alt_m": 584.09, "rel_alt_m": 0.003, "roll_deg": 0.06950103012650109, "pitch_deg": 0.05925862785753807, "yaw_deg": -4.902755463125227, "groundspeed_ms": 0.014126208610832691, "heading_deg": 355.0, "battery_v": null, "battery_pct": null, "iso_time": "2026-07-10T23:41:17"}
{"t_mono": 533704.734439443, "armed": null, "flight_mode": null, "lat_deg": -35.363262, "lon_deg": 149.1652371, "alt_m": 584.09, "rel_alt_m": 0.003, "roll_deg": 0.06950103012650109, "pitch_deg": 0.05925862785753807, "yaw_deg": -4.902755463125227, "groundspeed_ms": 0.014126208610832691, "heading_deg": 355.0, "battery_v": 12.6, "battery_pct": 100.0, "iso_time": "2026-07-10T23:41:17"}
{"t_mono": 533704.815790929, "armed": null, "flight_mode": null, "lat_deg": -35.363262, "lon_deg": 149.1652371, "alt_m": 584.09, "rel_alt_m": 0.003, "roll_deg": 0.07098188050560465, "pitch_deg": 0.061020936725320364, "yaw_deg": -4.91184857934463, "groundspeed_ms": 0.014126208610832691, "heading_deg": 355.0, "battery_v": 12.6, "battery_pct": 100.0, "iso_time": "2026-07-10T23:41:17"}
{"t_mono": 533704.816318159, "armed": null, "flight_mode": null, "lat_deg": -35.363262, "lon_deg": 149.1652371, "alt_m": 584.09, "rel_alt_m": 0.003, "roll_deg": 0.07098188050560465, "pitch_deg": 0.061020936725320364, "yaw_deg": -4.91184857934463, "groundspeed_ms": 0.014126208610832691, "heading_deg": 355.0, "battery_v": 12.6, "battery_pct": 100.0, "iso_time": "2026-07-10T23:41:17"}
{"t_mono": 533704.816728053, "armed": null, "flight_mode": null, "lat_deg": -35.363262, "lon_deg": 149.1652371, "alt_m": 584.09, "rel_alt_m": 0.003, "roll_deg": 0.07098188050560465, "pitch_deg": 0.061020936725320364, "yaw_deg": -4.91184857934463, "groundspeed_ms": 0.008714021183550358, "heading_deg": 355.0, "battery_v": 12.6, "battery_pct": 100.0, "iso_time": "2026-07-10T23:41:17"}
{"t_mono": 533704.817137791, "armed": null, "flight_mode": null, "lat_deg": -35.363262, "lon_deg": 149.1652371, "alt_m": 584.09, "rel_alt_m": 0.003, "roll_deg": 0.07098188050560465, "pitch_deg": 0.061020936725320364, "yaw_deg": -4.91184857934463, "groundspeed_ms": 0.008714021183550358, "heading_deg": 355.0, "battery_v": 12.6, "battery_pct": 100.0, "iso_time": "2026-07-10T23:41:17"}
{"t_mono": 533704.898850487, "armed": null, "flight_mode": null, "lat_deg": -35.363262, "lon_deg": 149.1652371, "alt_m": 584.09, "rel_alt_m": 0.003, "roll_deg": 0.0730679430080882, "pitch_deg": 0.06338333507460514, "yaw_deg": -4.923135040061252, "groundspeed_ms": 0.008714021183550358, "heading_deg": 355.0, "battery_v": 12.6, "battery_pct": 100.0, "iso_time": "2026-07-10T23:41:17"}
{"t_mono": 533704.89935134, "armed": null, "flight_mode": null, "lat_deg": -35.363262, "lon_deg": 149.1652371, "alt_m": 584.09, "rel_alt_m": 0.003, "roll_deg": 0.0730679430080882, "pitch_deg": 0.06338333507460514, "yaw_deg": -4.923135040061252, "groundspeed_ms": 0.008714021183550358, "heading_deg": 355.0, "battery_v": 12.6, "battery_pct": 100.0, "iso_time": "2026-07-10T23:41:17"}
{"t_mono": 533704.899778509, "armed": null, "flight_mode": null, "lat_deg": -35.363262, "lon_deg": 149.1652371, "alt_m": 584.09, "rel_alt_m": 0.003, "roll_deg": 0.0730679430080882, "pitch_deg": 0.06338333507460514, "yaw_deg": -4.923135040061252, "groundspeed_ms": 0.004109496716409922, "heading_deg": 355.0, "battery_v": 12.6, "battery_pct": 100.0, "iso_time": "2026-07-10T23:41:17"}
{"t_mono": 533704.900274119, "armed": null, "flight_mode": null, "lat_deg": -35.363262, "lon_deg": 149.1652371, "alt_m": 584.09, "rel_alt_m": 0.003, "roll_deg": 0.0730679430080882, "pitch_deg": 0.06338333507460514, "yaw_deg": -4.923135040061252, "groundspeed_ms": 0.004109496716409922, "heading_deg": 355.0, "battery_v": 12.6, "battery_pct": 100.0, "iso_time": "2026-07-10T23:41:17"}
{"t_mono": 533704.982350267, "armed": null, "flight_mode": null, "lat_deg": -35.363262, "lon_deg": 149.1652371, "alt_m": 584.09, "rel_alt_m": 0.003, "roll_deg": 0.0762575546390982, "pitch_deg": 0.0664609422753975, "yaw_deg": -4.9325367954537755, "groundspeed_ms": 0.004109496716409922, "heading_deg": 355.0, "battery_v": 12.6, "battery_pct": 100.0, "iso_time": "2026-07-10T23:41:17"}
{"t_mono": 533704.982910855, "armed": null, "flight_mode": null, "lat_deg": -35.363262, "lon_deg": 149.1652371, "alt_m": 584.09, "rel_alt_m": 0.003, "roll_deg": 0.0762575546390982, "pitch_deg": 0.0664609422753975, "yaw_deg": -4.9325367954537755, "groundspeed_ms": 0.004109496716409922, "heading_deg": 355.0, "battery_v": 12.6, "battery_pct": 100.0, "iso_time": "2026-07-10T23:41:17"}
{"t_mono": 533704.98338093, "armed": null, "flight_mode": null, "lat_deg": -35.363262, "lon_deg": 149.1652371, "alt_m": 584.09, "rel_alt_m": 0.003, "roll_deg": 0.0762575546390982, "pitch_deg": 0.0664609422753975, "yaw_deg": -4.9325367954537755, "groundspeed_ms": 0.0006851833313703537, "heading_deg": 355.0, "battery_v": 12.6, "battery_pct": 100.0, "iso_time": "2026-07-10T23:41:17"}
{"t_mono": 533704.983854041, "armed": null, "flight_mode": null, "lat_deg": -35.363262, "lon_deg": 149.1652371, "alt_m": 584.09, "rel_alt_m": 0.003, "roll_deg": 0.0762575546390982, "pitch_deg": 0.0664609422753975, "yaw_deg": -4.9325367954537755, "groundspeed_ms": 0.0006851833313703537, "heading_deg": 355.0, "battery_v": 12.6, "battery_pct": 100.0, "iso_time": "2026-07-10T23:41:17"}
{"t_mono": 533704.987857813, "armed": true, "flight_mode": "GUIDED", "lat_deg": -35.363262, "lon_deg": 149.1652371, "alt_m": 584.09, "rel_alt_m": 0.003, "roll_deg": 0.0762575546390982, "pitch_deg": 0.0664609422753975, "yaw_deg": -4.9325367954537755, "groundspeed_ms": 0.0006851833313703537, "heading_deg": 355.0, "battery_v": 12.6, "battery_pct": 100.0, "iso_time": "2026-07-10T23:41:17"}
{"t_mono": 533705.065464826, "armed": true, "flight_mode": "GUIDED", "lat_deg": -35.363262, "lon_deg": 149.1652371, "alt_m": 584.09, "rel_alt_m": 0.003, "roll_deg": 0.07940573823794517, "pitch_deg": 0.06963021008124293, "yaw_deg": -4.9438010580555956, "groundspeed_ms": 0.0006851833313703537, "heading_deg": 355.0, "battery_v": 12.6, "battery_pct": 100.0, "iso_time": "2026-07-10T23:41:17"}
{"t_mono": 533705.065898869, "armed": true, "flight_mode": "GUIDED", "lat_deg": -35.363262, "lon_deg": 149.1652371, "alt_m": 584.09, "rel_alt_m": 0.003, "roll_deg": 0.07940573823794517, "pitch_deg": 0.06963021008124293, "yaw_deg": -4.9438010580555956, "groundspeed_ms": 0.0006851833313703537, "heading_deg": 355.0, "battery_v": 12.6, "battery_pct": 100.0, "iso_time": "2026-07-10T23:41:17"}
{"t_mono": 533705.066269089, "armed": true, "flight_mode": "GUIDED", "lat_deg": -35.363262, "lon_deg": 149.1652371, "alt_m": 584.09, "rel_alt_m": 0.003, "roll_deg": 0.07940573823794517, "pitch_deg": 0.06963021008124293, "yaw_deg": -4.9438010580555956, "groundspeed_ms": 0.0017951799090951681, "heading_deg": 355.0, "battery_v": 12.6, "battery_pct": 100.0, "iso_time": "2026-07-10T23:41:17"}
{"t_mono": 533705.066654232, "armed": true, "flight_mode": "GUIDED", "lat_deg": -35.363262, "lon_deg": 149.1652371, "alt_m": 584.09, "rel_alt_m": 0.003, "roll_deg": 0.07940573823794517, "pitch_deg": 0.06963021008124293, "yaw_deg": -4.9438010580555956, "groundspeed_ms": 0.0017951799090951681, "heading_deg": 355.0, "battery_v": 12.6, "battery_pct": 100.0, "iso_time": "2026-07-10T23:41:17"}
{"t_mono": 533705.148522764, "armed": true, "flight_mode": "GUIDED", "lat_deg": -35.363262, "lon_deg": 149.1652371, "alt_m": 584.09, "rel_alt_m": 0.003, "roll_deg": 0.08265768868534477, "pitch_deg": 0.07293085897701192, "yaw_deg": -4.95377526867793, "groundspeed_ms": 0.0017951799090951681, "heading_deg": 355.0, "battery_v": 12.6, "battery_pct": 100.0, "iso_time": "2026-07-10T23:41:17"}
{"t_mono": 533705.149060824, "armed": true, "flight_mode": "GUIDED", "lat_deg": -35.363262, "lon_deg": 149.1652371, "alt_m": 584.09, "rel_alt_m": 0.003, "roll_deg": 0.08265768868534477, "pitch_deg": 0.07293085897701192, "yaw_deg": -4.95377526867793, "groundspeed_ms": 0.0017951799090951681, "heading_deg": 355.0, "battery_v": 12.6, "battery_pct": 100.0, "iso_time": "2026-07-10T23:41:17"}
{"t_mono": 533705.149485745, "armed": true, "flight_mode": "GUIDED", "lat_deg": -35.363262, "lon_deg": 149.1652371, "alt_m": 584.09, "rel_alt_m": 0.003, "roll_deg": 0.08265768868534477, "pitch_deg": 0.07293085897701192, "yaw_deg": -4.95377526867793, "groundspeed_ms": 0.0032548473682254553, "heading_deg": 355.0, "battery_v": 12.6, "battery_pct": 100.0, "iso_time": "2026-07-10T23:41:17"}
{"t_mono": 533705.149908042, "armed": true, "flight_mode": "GUIDED", "lat_deg": -35.363262, "lon_deg": 149.1652371, "alt_m": 584.09, "rel_alt_m": 0.003, "roll_deg": 0.08265768868534477, "pitch_deg": 0.07293085897701192, "yaw_deg": -4.95377526867793, "groundspeed_ms": 0.0032548473682254553, "heading_deg": 355.0, "battery_v": 12.6, "battery_pct": 100.0, "iso_time": "2026-07-10T23:41:17"}
{"t_mono": 533705.231595194, "armed": true, "flight_mode": "GUIDED", "lat_deg": -35.363262, "lon_deg": 149.1652371, "alt_m": 584.09, "rel_alt_m": 0.003, "roll_deg": 0.08621571698492556, "pitch_deg": 0.0766022123879194, "yaw_deg": -4.96413538498837, "groundspeed_ms": 0.0032548473682254553, "heading_deg": 355.0, "battery_v": 12.6, "battery_pct": 100.0, "iso_time": "2026-07-10T23:41:17"}
{"t_mono": 533705.231993705, "armed": true, "flight_mode": "GUIDED", "lat_deg": -35.363262, "lon_deg": 149.1652371, "alt_m": 584.09, "rel_alt_m": 0.003, "roll_deg": 0.08621571698492556, "pitch_deg": 0.0766022123879194, "yaw_deg": -4.96413538498837, "groundspeed_ms": 0.0032548473682254553, "heading_deg": 355.0, "battery_v": 12.6, "battery_pct": 100.0, "iso_time": "2026-07-10T23:41:17"}
{"t_mono": 533705.232405299, "armed": true, "flight_mode": "GUIDED", "lat_deg": -35.363262, "lon_deg": 149.1652371, "alt_m": 584.09, "rel_alt_m": 0.003, "roll_deg": 0.08621571698492556, "pitch_deg": 0.0766022123879194, "yaw_deg": -4.96413538498837, "groundspeed_ms": 0.0038390164263546467, "heading_deg": 355.0, "battery_v": 12.6, "battery_pct": 100.0, "iso_time": "2026-07-10T23:41:17"}
{"t_mono": 533705.232747296, "armed": true, "flight_mode": "GUIDED", "lat_deg": -35.363262, "lon_deg": 149.1652371, "alt_m": 584.09, "rel_alt_m": 0.003, "roll_deg": 0.08621571698492556, "pitch_deg": 0.0766022123879194, "yaw_deg": -4.96413538498837, "groundspeed_ms": 0.0038390164263546467, "heading_deg": 355.0, "battery_v": 12.6, "battery_pct": 100.0, "iso_time": "2026-07-10T23:41:17"}
{"t_mono": 533705.3147172, "armed": true, "flight_mode": "GUIDED", "lat_deg": -35.363262, "lon_deg": 149.1652371, "alt_m": 584.09, "rel_alt_m": 0.003, "roll_deg": 0.08989197292419236, "pitch_deg": 0.08023889458466112, "yaw_deg": -4.974556546114517, "groundspeed_ms": 0.0038390164263546467, "heading_deg": 355.0, "battery_v": 12.6, "battery_pct": 100.0, "iso_time": "2026-07-10T23:41:17"}
